{"city":"Białystok","country":"Poland","id":2119,"latitude":53.130672,"longitude":23.173689,"number":"44","street":"Warszawska"}
{"city":"Białystok","country":"Poland","id":32,"latitude":53.126689,"longitude":23.155869,"number":"16","street":"Waszyngtona"}
{"city":"Białystok","country":"Poland","id":2234,"latitude":53.134274,"longitude":23.148426,"number":"30","street":"Lipowa"}
{"city":"Białystok","country":"Poland","id":71,"latitude":53.129306,"longitude":23.181744,"number":"75A","street":"Warszawska"}
{"city":"Białystok","country":"Poland","id":11231,"latitude":53.13118,"longitude":23.138799,"street":"Kardynała Stefana Wyszyńskiego"}
{"city":"Białystok","country":"Poland","id":7770,"latitude":53.132695,"longitude":23.190159,"number":"18","street":"Mieszka I"}
{"city":"Białystok","country":"Poland","id":9983,"latitude":53.135394,"longitude":23.130144,"number":"11","street":"Zwycięstwa"}
{"city":"Białystok","country":"Poland","id":7978,"latitude":53.114879,"longitude":23.194593,"number":"16","street":"Żubrów"}
{"city":"Białystok","country":"Poland","id":2920,"latitude":53.15586,"longitude":23.200312,"number":"5","street":"Trawiasta"}
