{"city":"Wrocław","country":"Poland","id":822,"latitude":51.106439,"longitude":17.033665,"number":"2","street":"Widok"}
{"city":"Wrocław","country":"Poland","id":1127,"latitude":51.111053,"longitude":17.029436,"number":"26/27","street":"Kiełbaśnicza"}
{"city":"Wrocław","country":"Poland","id":6947,"latitude":51.099373,"longitude":17.042883,"number":"32","street":"Dąbrowskiego"}
{"city":"Wrocław","country":"Poland","id":10015,"latitude":51.086712,"longitude":17.04567,"number":"123","street":"Hubska"}
{"city":"Wrocław","country":"Poland","id":8,"latitude":51.129378,"longitude":17.02925,"number":"18","street":"Wybrzeże Conrada-Korzeniowskiego"}
{"city":"Wrocław","country":"Poland","id":6312,"latitude":51.083934,"longitude":17.039009,"street":"Gaj"}
{"city":"Wrocław","country":"Poland","id":9788,"latitude":51.086126,"longitude":17.056295,"number":"56J","street":"Piękna"}
{"city":"Wrocław","country":"Poland","id":776,"latitude":51.08712,"longitude":17.012417,"number":"139","street":"Powstańców Śląskich"}
{"city":"Wrocław","country":"Poland","id":7,"latitude":51.086225,"longitude":17.012689,"number":"1A","street":"aleja Wiśniowa"}
{"city":"Wrocław","country":"Poland","id":7795,"latitude":51.078366,"longitude":17.059426,"number":"21A","street":"Złotostocka"}
{"city":"Wrocław","country":"Poland","id":9856,"latitude":51.07442,"longitude":17.026903,"number":"52B","street":"Spiska"}
{"city":"Wrocław","country":"Poland","id":787,"latitude":51.072434,"longitude":17.006976,"number":"8","street":"aleja Karkonoska"}
{"city":"Wrocław","country":"Poland","id":7901,"latitude":51.09364,"longitude":16.977073,"number":"7A","street":"Nasturcjowa"}
{"city":"Wrocław","country":"Poland","id":2141,"latitude":51.127037,"longitude":16.978491,"number":"7","street":"Lotnicza"}
{"city":"Wrocław","country":"Poland","id":2742,"latitude":51.084899,"longitude":16.981613,"number":"9","street":"Tokarska"}
